{"platforms":[{"name":"Balti jaam","altNames":{},"location":{"lat":59.440258737182496,"lng":24.73797082901001}},{"name":"Vanalinn","altNames":{},"location":{"lat":59.43734567820795,"lng":24.7452449798584}},{"name":"Viru","altNames":{},"location":{"lat":59.43687105495076,"lng":24.754171371459957}},{"name":"Pronksi","altNames":{},"location":{"lat":59.43399043994989,"lng":24.764385223388672}},{"name":"Sadam","altNames":{},"location":{"lat":59.442806094407075,"lng":24.765050411224365}},{"name":"Viru","altNames":{},"location":{"lat":59.437040174346144,"lng":24.755877256393433}},{"name":"Vabaduse väljak","altNames":{},"location":{"lat":59.43304109264511,"lng":24.74573850631714}},{"name":"Uus Maailm","altNames":{},"location":{"lat":59.42710979707727,"lng":24.7422194480896}},{"name":"Lilleküla","altNames":{},"location":{"lat":59.424774098318565,"lng":24.728411436080933}},{"name":"Koolimaja","altNames":{},"location":{"lat":59.41766232221776,"lng":24.72077250480652}},{"name":"Kristiine","altNames":{},"location":{"lat":59.41289119167504,"lng":24.707136154174805}},{"name":"Mustamäe","altNames":{},"location":{"lat":59.40833779271599,"lng":24.68477725982666}},{"name":"Tehnikaülikool","altNames":{},"location":{"lat":59.397579731161244,"lng":24.67231035232544}},{"name":"Nõmme","altNames":{},"location":{"lat":59.38641394842416,"lng":24.687008857727047}},{"name":"Valdeku","altNames":{},"location":{"lat":59.38090618069977,"lng":24.699647426605225}},{"name":"Männiku","altNames":{},"location":{"lat":59.375310071951326,"lng":24.717907905578613}},{"name":"Kalamaja","altNames":{},"location":{"lat":59.447016722545946,"lng":24.730825424194332}},{"name":"Karjamaa","altNames":{},"location":{"lat":59.44860920693072,"lng":24.711685180664062}},{"name":"Pelguranna","altNames":{},"location":{"lat":59.44908911902738,"lng":24.697952270507812}},{"name":"Maleva","altNames":{},"location":{"lat":59.454847533004575,"lng":24.689369201660156}},{"name":"Kopli","altNames":{},"location":{"lat":59.46160805526095,"lng":24.667525291442868}},{"name":"Bussijaam","altNames":{},"location":{"lat":59.42771552440832,"lng":24.774641990661618}},{"name":"Sossimägi","altNames":{},"location":{"lat":59.424735896298415,"lng":24.78352546691894}},{"name":"Lennujaam","altNames":{},"location":{"lat":59.41654875463235,"lng":24.79942560195923}},{"name":"Mõigu","altNames":{},"location":{"lat":59.40470118558731,"lng":24.81032609939575}},{"name":"Järveküla","altNames":{},"location":{"lat":59.390708075092334,"lng":24.802751541137695}},{"name":"Kadriorg","altNames":{},"location":{"lat":59.43296470722153,"lng":24.77893352508545}},{"name":"Uuslinn","altNames":{},"location":{"lat":59.43664192409886,"lng":24.80852365493774}},{"name":"Laagna","altNames":{},"location":{"lat":59.43975142472433,"lng":24.835968017578125}},{"name":"Tondiraba","altNames":{},"location":{"lat":59.440842409846596,"lng":24.85768318176269}},{"name":"Mustakivi","altNames":{},"location":{"lat":59.44328608885102,"lng":24.875621795654297}},{"name":"Priisle","altNames":{},"location":{"lat":59.45423683861487,"lng":24.883689880371094}},{"name":"Iru","altNames":{},"location":{"lat":59.460648579589815,"lng":24.905147552490234}},{"name":"Altmetsa tee","altNames":{},"location":{"lat":59.46749515058106,"lng":24.94171142578125}},{"name":"Maardu","altNames":{},"location":{"lat":59.468792354071276,"lng":24.980571269989014}},{"name":"Bussijaam","altNames":{},"location":{"lat":59.427879232637046,"lng":24.773998260498047}},{"name":"Kesklinn","altNames":{},"location":{"lat":59.42951627137532,"lng":24.756789207458496}},{"name":"Vabaduse väljak","altNames":{},"location":{"lat":59.43327024788131,"lng":24.745352268218994}},{"name":"Kelmiküla","altNames":{},"location":{"lat":59.434863379483694,"lng":24.73288536071777}},{"name":"Pelgulinn","altNames":{},"location":{"lat":59.43316112653378,"lng":24.715805053710938}},{"name":"Hipodroom","altNames":{},"location":{"lat":59.429647231053856,"lng":24.7056770324707}},{"name":"Humala","altNames":{},"location":{"lat":59.429450791346056,"lng":24.689326286315918}},{"name":"Mustjõe","altNames":{},"location":{"lat":59.42792288803096,"lng":24.671645164489746}},{"name":"Loomaaed","altNames":{},"location":{"lat":59.42598016850304,"lng":24.657011032104492}},{"name":"Haabersti","altNames":{},"location":{"lat":59.42336059485962,"lng":24.64623928070068}},{"name":"Õismäe","altNames":{},"location":{"lat":59.412552710655866,"lng":24.640274047851562}},{"name":"Astangu","altNames":{},"location":{"lat":59.40604448233751,"lng":24.61684226989746}},{"name":"Ülikool","altNames":{},"location":{"lat":59.43907499627949,"lng":24.774985313415527}},{"name":"Russalka","altNames":{},"location":{"lat":59.44355880993254,"lng":24.796721935272217}},{"name":"Maarjamäe","altNames":{},"location":{"lat":59.457857222778685,"lng":24.824209213256836}},{"name":"Pirita","altNames":{},"location":{"lat":59.46823641581578,"lng":24.834508895874023}}],"transfers":[{"source":5,"target":2},{"source":37,"target":6},{"source":35,"target":21}],"lines":{"E":{"name":{"ru":"Gorodskaja električka","fi":"Paikallisjuna"}},"M1":{"name":{"ru":"Narvskaja linia","fi":"Narvanlinja"}},"M2":{"name":{"ru":"Moskovskaja linia","fi":"Moskovanlinja"}},"M3":{"name":{"ru":"Nevskaja linia","fi":"Nevanlinja"}},"M4":null,"M5":{"name":{"ru":"Kupčinskaja linia","fi":"Kupsilanlinja"}},"M6":{"name":{"ru":"Ligovskaja linia","fi":"Ligovkanlinja"}},"M7":{"name":{"ru":"Koľcevaja linia","fi":"Kehälinja"}},"M11":null,"L1":{"name":{"ru":"Južnaja linia","fi":"Etelälinja"}},"M8":{"name":{"ru":"Ohtinskaja linia","fi":"Ohanlinja"}},"M10":{"name":{"ru":"Ostrovnaja linia","fi":"Saarenlinja"}},"M9":{"name":{"ru":"Severnaja linia","fi":"Pohjoislinja"}},"M12":null},"spans":[{"source":0,"target":1,"routes":[0]},{"source":1,"target":2,"routes":[0]},{"source":2,"target":3,"routes":[0]},{"source":4,"target":5,"routes":[1]},{"source":5,"target":6,"routes":[1]},{"source":6,"target":7,"routes":[1]},{"source":7,"target":8,"routes":[1]},{"source":8,"target":9,"routes":[1]},{"source":9,"target":10,"routes":[1]},{"source":10,"target":11,"routes":[1]},{"source":11,"target":12,"routes":[1]},{"source":12,"target":13,"routes":[1]},{"source":13,"target":14,"routes":[1]},{"source":14,"target":15,"routes":[1]},{"source":0,"target":16,"routes":[0]},{"source":16,"target":17,"routes":[0]},{"source":17,"target":18,"routes":[0]},{"source":18,"target":19,"routes":[0]},{"source":19,"target":20,"routes":[0]},{"source":21,"target":3,"routes":[0]},{"source":21,"target":22,"routes":[0]},{"source":22,"target":23,"routes":[0]},{"source":23,"target":24,"routes":[0]},{"source":24,"target":25,"routes":[0]},{"source":26,"target":27,"routes":[2]},{"source":27,"target":28,"routes":[2]},{"source":28,"target":29,"routes":[2]},{"source":29,"target":30,"routes":[2]},{"source":30,"target":31,"routes":[2]},{"source":31,"target":32,"routes":[2]},{"source":32,"target":33,"routes":[2]},{"source":33,"target":34,"routes":[2]},{"source":26,"target":35,"routes":[2]},{"source":35,"target":36,"routes":[2]},{"source":36,"target":37,"routes":[2]},{"source":37,"target":38,"routes":[2]},{"source":38,"target":39,"routes":[2]},{"source":39,"target":40,"routes":[2]},{"source":40,"target":41,"routes":[2]},{"source":41,"target":42,"routes":[2]},{"source":42,"target":43,"routes":[2]},{"source":43,"target":44,"routes":[2]},{"source":44,"target":45,"routes":[2]},{"source":45,"target":46,"routes":[2]},{"source":4,"target":47,"routes":[1]},{"source":47,"target":48,"routes":[1]},{"source":48,"target":49,"routes":[1]},{"source":49,"target":50,"routes":[1]}],"routes":[{"line":"M1","branch":""},{"line":"M2","branch":""},{"line":"M3","branch":""},{"line":"M4","branch":""},{"line":"M5","branch":""},{"line":"M6","branch":""},{"line":"M7","branch":""},{"line":"M11","branch":""},{"line":"L1","branch":""},{"line":"M8","branch":""},{"line":"M10","branch":""},{"line":"M9","branch":""},{"line":"M12","branch":"a"},{"line":"M12","branch":""},{"line":"M12","branch":"b"},{"line":"E","branch":"4"},{"line":"E","branch":"5"},{"line":"E","branch":"6"},{"line":"E","branch":"7"},{"line":"E","branch":"3"},{"line":"E","branch":"2"},{"line":"E","branch":"1"}]}