{"platforms":[{"name":"Balti jaam","altNames":{},"location":{"lat":59.44102787381845,"lng":24.735546112060547}},{"name":"Vanalinn","altNames":{},"location":{"lat":59.43734567820795,"lng":24.7452449798584}},{"name":"Viru","altNames":{},"location":{"lat":59.43687105495076,"lng":24.754171371459957}},{"name":"Pronksi","altNames":{},"location":{"lat":59.43399043994989,"lng":24.764385223388672}},{"name":"Lagedi","altNames":{},"location":{"lat":59.39932746592542,"lng":24.932334423065186}},{"name":"Viru","altNames":{},"location":{"lat":59.437040174346144,"lng":24.755877256393433}},{"name":"Vabaduse väljak","altNames":{},"location":{"lat":59.43304109264511,"lng":24.74573850631714}},{"name":"Uus Maailm","altNames":{},"location":{"lat":59.42700065586509,"lng":24.74199414253235}},{"name":"Lilleküla","altNames":{},"location":{"lat":59.42494327817538,"lng":24.729055166244507}},{"name":"Koolimaja","altNames":{},"location":{"lat":59.41766232221776,"lng":24.72077250480652}},{"name":"Kristiine","altNames":{},"location":{"lat":59.41289119167504,"lng":24.707136154174805}},{"name":"Mustamäe","altNames":{},"location":{"lat":59.40833779271599,"lng":24.68477725982666}},{"name":"Tehnikaülikool","altNames":{},"location":{"lat":59.397579731161244,"lng":24.67231035232544}},{"name":"Nõmme","altNames":{},"location":{"lat":59.386523220478125,"lng":24.686955213546753}},{"name":"Vabaduse puiestee","altNames":{},"location":{"lat":59.38090618069977,"lng":24.699647426605225}},{"name":"Valdeku","altNames":{},"location":{"lat":59.37527727953045,"lng":24.719367027282715}},{"name":"Kalamaja","altNames":{},"location":{"lat":59.447016722545946,"lng":24.730825424194332}},{"name":"Karjamaa","altNames":{},"location":{"lat":59.44860920693072,"lng":24.711685180664062}},{"name":"Pelguranna","altNames":{},"location":{"lat":59.44908911902738,"lng":24.697952270507812}},{"name":"Maleva","altNames":{},"location":{"lat":59.454847533004575,"lng":24.689369201660156}},{"name":"Kopli","altNames":{},"location":{"lat":59.46160805526095,"lng":24.667525291442868}},{"name":"Bussijaam","altNames":{},"location":{"lat":59.428337611465054,"lng":24.77592945098877}},{"name":"Ülemiste","altNames":{},"location":{"lat":59.422400033731684,"lng":24.79665756225586}},{"name":"Lennujaam","altNames":{},"location":{"lat":59.41639590916444,"lng":24.801120758056637}},{"name":"Mõigu","altNames":{},"location":{"lat":59.40470118558731,"lng":24.81032609939575}},{"name":"Järveküla","altNames":{},"location":{"lat":59.390708075092334,"lng":24.802751541137695}},{"name":"Kadriorg","altNames":{},"location":{"lat":59.43296470722153,"lng":24.77893352508545}},{"name":"Uuslinn","altNames":{},"location":{"lat":59.43664192409886,"lng":24.80852365493774}},{"name":"Laagna","altNames":{},"location":{"lat":59.43975142472433,"lng":24.835968017578125}},{"name":"Tondiraba","altNames":{},"location":{"lat":59.440842409846596,"lng":24.85768318176269}},{"name":"Mustakivi","altNames":{},"location":{"lat":59.44328608885102,"lng":24.875621795654297}},{"name":"Priisle","altNames":{},"location":{"lat":59.45423683861487,"lng":24.883689880371094}},{"name":"Iru","altNames":{},"location":{"lat":59.460648579589815,"lng":24.905147552490234}},{"name":"Altmetsa tee","altNames":{},"location":{"lat":59.46749515058106,"lng":24.94171142578125}},{"name":"Uusküla","altNames":{},"location":{"lat":59.4804649448478,"lng":24.98188018798828}},{"name":"Bussijaam","altNames":{},"location":{"lat":59.427879232637046,"lng":24.773998260498047}},{"name":"Sibulaküla","altNames":{},"location":{"lat":59.42951627137532,"lng":24.756789207458496}},{"name":"Vabaduse väljak","altNames":{},"location":{"lat":59.43335208866103,"lng":24.744526147842407}},{"name":"Kelmiküla","altNames":{},"location":{"lat":59.434863379483694,"lng":24.73288536071777}},{"name":"Pelgulinn","altNames":{},"location":{"lat":59.43316112653378,"lng":24.715805053710938}},{"name":"Hipodroom","altNames":{},"location":{"lat":59.429647231053856,"lng":24.7056770324707}},{"name":"Humala","altNames":{},"location":{"lat":59.429450791346056,"lng":24.689326286315918}},{"name":"Mustjõe","altNames":{},"location":{"lat":59.42792288803096,"lng":24.671645164489746}},{"name":"Loomaaed","altNames":{},"location":{"lat":59.42598016850304,"lng":24.657011032104492}},{"name":"Haabersti","altNames":{},"location":{"lat":59.42336059485962,"lng":24.64623928070068}},{"name":"Õismäe","altNames":{},"location":{"lat":59.412552710655866,"lng":24.640274047851562}},{"name":"Astangu","altNames":{},"location":{"lat":59.40604448233751,"lng":24.61684226989746}},{"name":"Ülikool","altNames":{},"location":{"lat":59.43907499627949,"lng":24.774985313415527}},{"name":"Russalka","altNames":{},"location":{"lat":59.44355880993254,"lng":24.796721935272217}},{"name":"Maarjamäe","altNames":{},"location":{"lat":59.457857222778685,"lng":24.824209213256836}},{"name":"Pirita","altNames":{},"location":{"lat":59.46823641581578,"lng":24.834508895874023}},{"name":"Balti jaam","altNames":{},"location":{"lat":59.44025328225028,"lng":24.736769199371338}},{"name":"Lilleküla","altNames":{},"location":{"lat":59.424855959645186,"lng":24.728078842163086}},{"name":"Kitseküla","altNames":{},"location":{"lat":59.420009428064525,"lng":24.739848375320435}},{"name":"Ülemiste","altNames":{},"location":{"lat":59.423295102921244,"lng":24.796185493469235}},{"name":"Vesse","altNames":{},"location":{"lat":59.423011303057464,"lng":24.819670915603638}},{"name":"Sadam","altNames":{},"location":{"lat":59.44285518506058,"lng":24.764825105667114}},{"name":"Bussijaam","altNames":{},"location":{"lat":59.42730079335179,"lng":24.774727821350094}},{"name":"Lennujaam","altNames":{},"location":{"lat":59.416450496910755,"lng":24.799339771270752}},{"name":"Kulli","altNames":{},"location":{"lat":59.38344707757099,"lng":25.003724098205566}},{"name":"Aruküla","altNames":{},"location":{"lat":59.37203067292439,"lng":25.078847408294678}},{"name":"Raasiku","altNames":{},"location":{"lat":59.36562399893319,"lng":25.17484903335571}},{"name":"Luite","altNames":{},"location":{"lat":59.412678276589936,"lng":24.745835065841675}},{"name":"Liiva","altNames":{},"location":{"lat":59.38753397028106,"lng":24.723047018051147}},{"name":"Valdeku","altNames":{},"location":{"lat":59.37532646814988,"lng":24.720407724380493}},{"name":"Männiku","altNames":{},"location":{"lat":59.33869400023936,"lng":24.70151424407959}},{"name":"Tondi","altNames":{},"location":{"lat":59.41058727014738,"lng":24.733293056488034}},{"name":"Järve","altNames":{},"location":{"lat":59.40066005311352,"lng":24.724645614624023}},{"name":"Rahumäe","altNames":{},"location":{"lat":59.38864302863359,"lng":24.70272660255432}},{"name":"Nõmme","altNames":{},"location":{"lat":59.386146230403526,"lng":24.68656897544861}},{"name":"Hiiu","altNames":{},"location":{"lat":59.382988090936465,"lng":24.67023968696594}},{"name":"Kivimäe","altNames":{},"location":{"lat":59.37706988536578,"lng":24.656624794006348}},{"name":"Pääsküla","altNames":{},"location":{"lat":59.36949438693878,"lng":24.641228914260864}},{"name":"Maardu","altNames":{},"location":{"lat":59.47948421007412,"lng":25.01659870147705}},{"name":"Merivälja","altNames":{},"location":{"lat":59.49299404942948,"lng":24.840388298034668}}],"transfers":[{"source":5,"target":2},{"source":37,"target":6},{"source":35,"target":21},{"source":0,"target":51},{"source":52,"target":8},{"source":57,"target":35},{"source":57,"target":21},{"source":22,"target":54},{"source":23,"target":58},{"source":15,"target":64},{"source":13,"target":69}],"lines":{"E":{"name":{"ru":"Gorodskaja električka","fi":"Paikallisjuna"}},"M1":{"name":{"ru":"Narvskaja linia","fi":"Narvanlinja"}},"M2":{"name":{"ru":"Moskovskaja linia","fi":"Moskovanlinja"}},"M3":{"name":{"ru":"Nevskaja linia","fi":"Nevanlinja"}},"M4":null,"M5":{"name":{"ru":"Kupčinskaja linia","fi":"Kupsilanlinja"}},"M6":{"name":{"ru":"Ligovskaja linia","fi":"Ligovkanlinja"}},"M7":{"name":{"ru":"Koľcevaja linia","fi":"Kehälinja"}},"M11":null,"L1":{"name":{"ru":"Južnaja linia","fi":"Etelälinja"}},"M8":{"name":{"ru":"Ohtinskaja linia","fi":"Ohanlinja"}},"M10":{"name":{"ru":"Ostrovnaja linia","fi":"Saarenlinja"}},"M9":{"name":{"ru":"Severnaja linia","fi":"Pohjoislinja"}},"M12":null},"spans":[{"source":0,"target":1,"routes":[0]},{"source":1,"target":2,"routes":[0]},{"source":2,"target":3,"routes":[0]},{"source":47,"target":5,"routes":[1]},{"source":5,"target":6,"routes":[1]},{"source":6,"target":7,"routes":[1]},{"source":7,"target":8,"routes":[1]},{"source":8,"target":9,"routes":[1]},{"source":9,"target":10,"routes":[1]},{"source":10,"target":11,"routes":[1]},{"source":11,"target":12,"routes":[1]},{"source":12,"target":13,"routes":[1]},{"source":13,"target":14,"routes":[1]},{"source":14,"target":15,"routes":[1]},{"source":0,"target":16,"routes":[0]},{"source":16,"target":17,"routes":[0]},{"source":17,"target":18,"routes":[0]},{"source":18,"target":19,"routes":[0]},{"source":19,"target":20,"routes":[0]},{"source":21,"target":3,"routes":[0]},{"source":21,"target":22,"routes":[0]},{"source":22,"target":23,"routes":[0]},{"source":23,"target":24,"routes":[0]},{"source":24,"target":25,"routes":[0]},{"source":26,"target":27,"routes":[2]},{"source":27,"target":28,"routes":[2]},{"source":28,"target":29,"routes":[2]},{"source":29,"target":30,"routes":[2]},{"source":30,"target":31,"routes":[2]},{"source":31,"target":32,"routes":[2]},{"source":32,"target":33,"routes":[2]},{"source":33,"target":34,"routes":[2]},{"source":26,"target":35,"routes":[2]},{"source":35,"target":36,"routes":[2]},{"source":36,"target":37,"routes":[2]},{"source":37,"target":38,"routes":[2]},{"source":38,"target":39,"routes":[2]},{"source":39,"target":40,"routes":[2]},{"source":40,"target":41,"routes":[2]},{"source":41,"target":42,"routes":[2]},{"source":42,"target":43,"routes":[2]},{"source":43,"target":44,"routes":[2]},{"source":44,"target":45,"routes":[2]},{"source":45,"target":46,"routes":[2]},{"source":55,"target":4,"routes":[21]},{"source":47,"target":48,"routes":[1]},{"source":48,"target":49,"routes":[1]},{"source":49,"target":50,"routes":[1]},{"source":51,"target":52,"routes":[21]},{"source":52,"target":53,"routes":[21]},{"source":53,"target":54,"routes":[21]},{"source":54,"target":55,"routes":[21]},{"source":51,"target":56,"routes":[21]},{"source":56,"target":57,"routes":[21]},{"source":57,"target":58,"routes":[21]},{"source":58,"target":55,"routes":[21]},{"source":4,"target":59,"routes":[21]},{"source":59,"target":60,"routes":[21]},{"source":60,"target":61,"routes":[21]},{"source":53,"target":62,"routes":[21]},{"source":62,"target":63,"routes":[21]},{"source":63,"target":64,"routes":[21]},{"source":64,"target":65,"routes":[21]},{"source":52,"target":66,"routes":[21]},{"source":66,"target":67,"routes":[21]},{"source":67,"target":68,"routes":[21]},{"source":68,"target":69,"routes":[21]},{"source":69,"target":70,"routes":[21]},{"source":70,"target":71,"routes":[21]},{"source":71,"target":72,"routes":[21]},{"source":34,"target":73,"routes":[2]},{"source":50,"target":74,"routes":[1]}],"routes":[{"line":"M1","branch":""},{"line":"M2","branch":""},{"line":"M3","branch":""},{"line":"M4","branch":""},{"line":"M5","branch":""},{"line":"M6","branch":""},{"line":"M7","branch":""},{"line":"M11","branch":""},{"line":"L1","branch":""},{"line":"M8","branch":""},{"line":"M10","branch":""},{"line":"M9","branch":""},{"line":"M12","branch":"a"},{"line":"M12","branch":""},{"line":"M12","branch":"b"},{"line":"E","branch":"4"},{"line":"E","branch":"5"},{"line":"E","branch":"6"},{"line":"E","branch":"7"},{"line":"E","branch":"3"},{"line":"E","branch":"2"},{"line":"E","branch":"1"}]}